{
    "1": {
        "index": 1,
        "location": "Bradford West Gwillimbury",
        "lat": 44.114899,
        "lng": -79.56295290000001,
        "demand": 0.0,
        "cityref": 70
    },
    "2": {
        "index": 2,
        "location": "Caledonia",
        "lat": 43.0647528,
        "lng": -79.95507479999998,
        "demand": 239.0,
        "cityref": 16
    },
    "3": {
        "index": 3,
        "location": "Thornhill",
        "lat": 43.814255200000005,
        "lng": -79.424025,
        "demand": 24.0,
        "cityref": 64
    },
    "4": {
        "index": 4,
        "location": "Exeter",
        "lat": 43.3472758,
        "lng": -81.4805653,
        "demand": 70.0,
        "cityref": 87
    },
    "5": {
        "index": 5,
        "location": "Winchester",
        "lat": 45.073258100000004,
        "lng": -75.36307860000002,
        "demand": 32.0,
        "cityref": 91
    },
    "6": {
        "index": 6,
        "location": "Cold Springs",
        "lat": 44.066396000000005,
        "lng": -78.21017599999998,
        "demand": 188.0,
        "cityref": 61
    },
    "7": {
        "index": 7,
        "location": "Southampton",
        "lat": 44.49485429999999,
        "lng": -81.3695635,
        "demand": 13.0,
        "cityref": 43
    },
    "8": {
        "index": 8,
        "location": "Harrietsville",
        "lat": 42.908852,
        "lng": -81.00229,
        "demand": 270.0,
        "cityref": 28
    },
    "9": {
        "index": 9,
        "location": "Sunderland",
        "lat": 44.2628301,
        "lng": -79.0663132,
        "demand": 95.0,
        "cityref": 22
    },
    "10": {
        "index": 10,
        "location": "Fingal",
        "lat": 42.712527,
        "lng": -81.310902,
        "demand": 85.0,
        "cityref": 83
    },
    "11": {
        "index": 11,
        "location": "Yarker",
        "lat": 44.371583,
        "lng": -76.77027509999999,
        "demand": 182.0,
        "cityref": 20
    },
    "12": {
        "index": 12,
        "location": "Adolphustown",
        "lat": 44.06373,
        "lng": -77.00655990000001,
        "demand": 245.0,
        "cityref": 84
    },
    "13": {
        "index": 13,
        "location": "Oakville",
        "lat": 43.467517,
        "lng": -79.68766590000001,
        "demand": 53.0,
        "cityref": 40
    },
    "14": {
        "index": 14,
        "location": "Fort Erie",
        "lat": 42.901776399999996,
        "lng": -78.9721745,
        "demand": 268.0,
        "cityref": 71
    },
    "15": {
        "index": 15,
        "location": "Hagersville",
        "lat": 42.9598903,
        "lng": -80.05228609999999,
        "demand": 218.0,
        "cityref": 65
    },
    "16": {
        "index": 16,
        "location": "Barry`s Bay",
        "lat": 45.4882068,
        "lng": -77.67880509999998,
        "demand": 63.0,
        "cityref": 51
    },
    "17": {
        "index": 17,
        "location": "Ancaster",
        "lat": 43.2177791,
        "lng": -79.98728349999998,
        "demand": 171.0,
        "cityref": 94
    },
    "18": {
        "index": 18,
        "location": "Hanover",
        "lat": 44.1526004,
        "lng": -81.0254145,
        "demand": 216.0,
        "cityref": 7
    },
    "19": {
        "index": 19,
        "location": "Whitby",
        "lat": 43.897544599999996,
        "lng": -78.94293290000002,
        "demand": 193.0,
        "cityref": 6
    },
    "20": {
        "index": 20,
        "location": "Mallorytown",
        "lat": 44.47933099999999,
        "lng": -75.884855,
        "demand": 14.0,
        "cityref": 2
    },
    "21": {
        "index": 21,
        "location": "Stevensville",
        "lat": 42.943175399999994,
        "lng": -79.05512329999998,
        "demand": 165.0,
        "cityref": 10
    },
    "22": {
        "index": 22,
        "location": "Upsala",
        "lat": 49.05008429999999,
        "lng": -90.4716051,
        "demand": 288.0,
        "cityref": 92
    },
    "23": {
        "index": 23,
        "location": "Seaforth",
        "lat": 43.5534346,
        "lng": -81.39340490000001,
        "demand": 283.0,
        "cityref": 78
    },
    "24": {
        "index": 24,
        "location": "Utterson",
        "lat": 45.211059999999996,
        "lng": -79.32926499999998,
        "demand": 47.0,
        "cityref": 54
    },
    "25": {
        "index": 25,
        "location": "Beeton",
        "lat": 44.079161600000006,
        "lng": -79.78431499999998,
        "demand": 138.0,
        "cityref": 52
    },
    "26": {
        "index": 26,
        "location": "St. Isidore de Prescott",
        "lat": 45.388496,
        "lng": -74.907358,
        "demand": 170.0,
        "cityref": 80
    },
    "27": {
        "index": 27,
        "location": "Killarney",
        "lat": 45.97191369999999,
        "lng": -81.51149720000001,
        "demand": 231.0,
        "cityref": 100
    },
    "28": {
        "index": 28,
        "location": "Atwood",
        "lat": 43.669327100000004,
        "lng": -81.017763,
        "demand": 118.0,
        "cityref": 17
    },
    "29": {
        "index": 29,
        "location": "Smiths Falls",
        "lat": 44.903748,
        "lng": -76.02161889999998,
        "demand": 290.0,
        "cityref": 85
    },
    "30": {
        "index": 30,
        "location": "Haileybury",
        "lat": 47.4463218,
        "lng": -79.6354588,
        "demand": 292.0,
        "cityref": 81
    },
    "31": {
        "index": 31,
        "location": "Tavistock",
        "lat": 43.2470056,
        "lng": -80.78794070000001,
        "demand": 229.0,
        "cityref": 46
    },
    "32": {
        "index": 32,
        "location": "Keewatin",
        "lat": 49.7586397,
        "lng": -94.5565844,
        "demand": 278.0,
        "cityref": 95
    },
    "33": {
        "index": 33,
        "location": "Morrisburg",
        "lat": 44.89778889999999,
        "lng": -75.1833966,
        "demand": 143.0,
        "cityref": 13
    },
    "34": {
        "index": 34,
        "location": "Brigden",
        "lat": 42.814509,
        "lng": -82.28178740000001,
        "demand": 73.0,
        "cityref": 79
    },
    "35": {
        "index": 35,
        "location": "Manotick",
        "lat": 45.2274934,
        "lng": -75.72293119999998,
        "demand": 121.0,
        "cityref": 12
    },
    "36": {
        "index": 36,
        "location": "Rockwood",
        "lat": 43.61887,
        "lng": -80.144189,
        "demand": 240.0,
        "cityref": 19
    },
    "37": {
        "index": 37,
        "location": "Galt",
        "lat": 43.360053,
        "lng": -80.30623899999998,
        "demand": 101.0,
        "cityref": 9
    },
    "38": {
        "index": 38,
        "location": "Casselman",
        "lat": 45.310704799999996,
        "lng": -75.0893653,
        "demand": 260.0,
        "cityref": 11
    },
    "39": {
        "index": 39,
        "location": "Macdiarmid",
        "lat": 49.436801,
        "lng": -88.12921290000001,
        "demand": 278.0,
        "cityref": 96
    },
    "40": {
        "index": 40,
        "location": "Foymount",
        "lat": 45.437767,
        "lng": -77.30616490000001,
        "demand": 104.0,
        "cityref": 37
    },
    "41": {
        "index": 41,
        "location": "Foleyet",
        "lat": 48.243889,
        "lng": -82.439722,
        "demand": 30.0,
        "cityref": 29
    },
    "42": {
        "index": 42,
        "location": "Douglastown",
        "lat": 42.974767,
        "lng": -79.025764,
        "demand": 258.0,
        "cityref": 50
    },
    "43": {
        "index": 43,
        "location": "Seeleys Bay",
        "lat": 44.4778213,
        "lng": -76.234386,
        "demand": 297.0,
        "cityref": 33
    },
    "44": {
        "index": 44,
        "location": "Holstein",
        "lat": 44.0597897,
        "lng": -80.7598221,
        "demand": 299.0,
        "cityref": 89
    },
    "45": {
        "index": 45,
        "location": "Queenston",
        "lat": 43.1690076,
        "lng": -79.0574436,
        "demand": 230.0,
        "cityref": 67
    },
    "46": {
        "index": 46,
        "location": "Lucan",
        "lat": 43.215177000000004,
        "lng": -81.36194019999998,
        "demand": 40.0,
        "cityref": 69
    },
    "47": {
        "index": 47,
        "location": "Grand Bend",
        "lat": 43.313039700000004,
        "lng": -81.75622419999998,
        "demand": 281.0,
        "cityref": 62
    },
    "48": {
        "index": 48,
        "location": "Avonmore",
        "lat": 45.172129999999996,
        "lng": -74.967192,
        "demand": 265.0,
        "cityref": 49
    },
    "49": {
        "index": 49,
        "location": "Temagami",
        "lat": 47.063373399999996,
        "lng": -79.7895671,
        "demand": 178.0,
        "cityref": 53
    },
    "50": {
        "index": 50,
        "location": "Hemlo",
        "lat": 48.683333000000005,
        "lng": -85.983333,
        "demand": 232.0,
        "cityref": 8
    }
}