{
    "1": {
        "index": 1,
        "location": "Pointe au Baril",
        "lat": 45.59655009999999,
        "lng": -80.3845462,
        "demand": 0.0,
        "cityref": 239
    },
    "2": {
        "index": 2,
        "location": "Bowmanville",
        "lat": 43.912604200000004,
        "lng": -78.688019,
        "demand": 114.0,
        "cityref": 130
    },
    "3": {
        "index": 3,
        "location": "Shakespeare",
        "lat": 43.369623,
        "lng": -80.837023,
        "demand": 61.0,
        "cityref": 250
    },
    "4": {
        "index": 4,
        "location": "Restoule",
        "lat": 46.02686,
        "lng": -79.719627,
        "demand": 47.0,
        "cityref": 36
    },
    "5": {
        "index": 5,
        "location": "Glen Water",
        "lat": 48.54833499999999,
        "lng": -89.785088,
        "demand": 271.0,
        "cityref": 122
    },
    "6": {
        "index": 6,
        "location": "Port Perry",
        "lat": 44.10504539999999,
        "lng": -78.944148,
        "demand": 275.0,
        "cityref": 195
    },
    "7": {
        "index": 7,
        "location": "Tobermory",
        "lat": 45.2533625,
        "lng": -81.6645411,
        "demand": 122.0,
        "cityref": 103
    },
    "8": {
        "index": 8,
        "location": "Sioux Narrows",
        "lat": 49.41082979999999,
        "lng": -94.0958688,
        "demand": 42.0,
        "cityref": 38
    },
    "9": {
        "index": 9,
        "location": "Birch Island",
        "lat": 46.06821129999999,
        "lng": -81.7776902,
        "demand": 270.0,
        "cityref": 6
    },
    "10": {
        "index": 10,
        "location": "Clarington",
        "lat": 43.9345347,
        "lng": -78.60003359999999,
        "demand": 266.0,
        "cityref": 215
    },
    "11": {
        "index": 11,
        "location": "Fenelon Falls",
        "lat": 44.53701969999999,
        "lng": -78.7361328,
        "demand": 163.0,
        "cityref": 93
    },
    "12": {
        "index": 12,
        "location": "Redbridge",
        "lat": 46.386304700000004,
        "lng": -79.2569657,
        "demand": 193.0,
        "cityref": 52
    },
    "13": {
        "index": 13,
        "location": "Madoc",
        "lat": 44.5052295,
        "lng": -77.47263629999998,
        "demand": 249.0,
        "cityref": 135
    },
    "14": {
        "index": 14,
        "location": "Dunnville",
        "lat": 42.9035374,
        "lng": -79.61700440000001,
        "demand": 102.0,
        "cityref": 212
    },
    "15": {
        "index": 15,
        "location": "Meaford",
        "lat": 44.6059438,
        "lng": -80.5936871,
        "demand": 231.0,
        "cityref": 146
    },
    "16": {
        "index": 16,
        "location": "Powassan",
        "lat": 46.0807239,
        "lng": -79.368324,
        "demand": 299.0,
        "cityref": 156
    },
    "17": {
        "index": 17,
        "location": "Iroquois Falls",
        "lat": 48.767981400000004,
        "lng": -80.67316650000001,
        "demand": 80.0,
        "cityref": 13
    },
    "18": {
        "index": 18,
        "location": "Lansdowne",
        "lat": 44.4057559,
        "lng": -76.01826179999998,
        "demand": 66.0,
        "cityref": 1
    },
    "19": {
        "index": 19,
        "location": "Tamworth",
        "lat": 44.487744899999996,
        "lng": -76.99518990000001,
        "demand": 182.0,
        "cityref": 175
    },
    "20": {
        "index": 20,
        "location": "Alderville First Nation",
        "lat": 44.1728865,
        "lng": -78.0851607,
        "demand": 126.0,
        "cityref": 193
    },
    "21": {
        "index": 21,
        "location": "Webbwood",
        "lat": 46.269929,
        "lng": -81.88376099999998,
        "demand": 39.0,
        "cityref": 151
    },
    "22": {
        "index": 22,
        "location": "Lincoln",
        "lat": 43.139227000000005,
        "lng": -79.48490000000002,
        "demand": 74.0,
        "cityref": 8
    },
    "23": {
        "index": 23,
        "location": "Holland Landing",
        "lat": 44.09986079999999,
        "lng": -79.48742299999998,
        "demand": 39.0,
        "cityref": 57
    },
    "24": {
        "index": 24,
        "location": "Sultan",
        "lat": 47.593853,
        "lng": -82.756869,
        "demand": 119.0,
        "cityref": 100
    },
    "25": {
        "index": 25,
        "location": "Forest",
        "lat": 43.093452,
        "lng": -82.00256259999998,
        "demand": 1.0,
        "cityref": 136
    },
    "26": {
        "index": 26,
        "location": "Jellicoe",
        "lat": 49.6859305,
        "lng": -87.5300824,
        "demand": 284.0,
        "cityref": 106
    },
    "27": {
        "index": 27,
        "location": "Lion`s Head",
        "lat": 44.9871484,
        "lng": -81.25460760000001,
        "demand": 253.0,
        "cityref": 233
    },
    "28": {
        "index": 28,
        "location": "Auburn",
        "lat": 43.773398,
        "lng": -81.532687,
        "demand": 139.0,
        "cityref": 164
    },
    "29": {
        "index": 29,
        "location": "East York",
        "lat": 43.69120059999999,
        "lng": -79.34166379999998,
        "demand": 161.0,
        "cityref": 24
    },
    "30": {
        "index": 30,
        "location": "Melbourne",
        "lat": 42.815939,
        "lng": -81.55346999999998,
        "demand": 271.0,
        "cityref": 142
    },
    "31": {
        "index": 31,
        "location": "Aberarder",
        "lat": 43.053042,
        "lng": -82.09332599999998,
        "demand": 225.0,
        "cityref": 35
    },
    "32": {
        "index": 32,
        "location": "Otterville",
        "lat": 42.926482899999996,
        "lng": -80.60338209999998,
        "demand": 147.0,
        "cityref": 124
    },
    "33": {
        "index": 33,
        "location": "Cottam",
        "lat": 42.1308219,
        "lng": -82.74473689999998,
        "demand": 62.0,
        "cityref": 132
    },
    "34": {
        "index": 34,
        "location": "Bala",
        "lat": 45.016543,
        "lng": -79.615314,
        "demand": 48.0,
        "cityref": 108
    },
    "35": {
        "index": 35,
        "location": "Ojibways of Walpole Island Fir",
        "lat": 42.5701997,
        "lng": -82.50775929999998,
        "demand": 203.0,
        "cityref": 66
    },
    "36": {
        "index": 36,
        "location": "Brockville",
        "lat": 44.5895244,
        "lng": -75.68428580000001,
        "demand": 166.0,
        "cityref": 119
    },
    "37": {
        "index": 37,
        "location": "Almonte",
        "lat": 45.22556549999999,
        "lng": -76.19405979999998,
        "demand": 166.0,
        "cityref": 115
    },
    "38": {
        "index": 38,
        "location": "Perth",
        "lat": 44.8988097,
        "lng": -76.2485592,
        "demand": 262.0,
        "cityref": 143
    },
    "39": {
        "index": 39,
        "location": "York",
        "lat": 43.6956787,
        "lng": -79.45035440000001,
        "demand": 183.0,
        "cityref": 26
    },
    "40": {
        "index": 40,
        "location": "Kincardine",
        "lat": 44.175295399999996,
        "lng": -81.6365715,
        "demand": 133.0,
        "cityref": 19
    },
    "41": {
        "index": 41,
        "location": "Innisfil",
        "lat": 44.30088129999999,
        "lng": -79.6114973,
        "demand": 65.0,
        "cityref": 179
    },
    "42": {
        "index": 42,
        "location": "Hemlo",
        "lat": 48.683333000000005,
        "lng": -85.983333,
        "demand": 114.0,
        "cityref": 240
    },
    "43": {
        "index": 43,
        "location": "Wellandport",
        "lat": 43.004923100000006,
        "lng": -79.48191229999998,
        "demand": 23.0,
        "cityref": 76
    },
    "44": {
        "index": 44,
        "location": "Casselman",
        "lat": 45.310704799999996,
        "lng": -75.0893653,
        "demand": 0.0,
        "cityref": 198
    },
    "45": {
        "index": 45,
        "location": "Simcoe",
        "lat": 42.8372632,
        "lng": -80.30404240000001,
        "demand": 155.0,
        "cityref": 186
    },
    "46": {
        "index": 46,
        "location": "Metcalfe",
        "lat": 45.2340408,
        "lng": -75.47182790000001,
        "demand": 91.0,
        "cityref": 153
    },
    "47": {
        "index": 47,
        "location": "Silver Water",
        "lat": 45.857853999999996,
        "lng": -82.855147,
        "demand": 35.0,
        "cityref": 247
    },
    "48": {
        "index": 48,
        "location": "Nestor Falls",
        "lat": 49.41082979999999,
        "lng": -94.0958688,
        "demand": 20.0,
        "cityref": 29
    },
    "49": {
        "index": 49,
        "location": "West Lorne",
        "lat": 42.603778999999996,
        "lng": -81.60665300000001,
        "demand": 118.0,
        "cityref": 165
    },
    "50": {
        "index": 50,
        "location": "Niagara Falls",
        "lat": 43.08955770000001,
        "lng": -79.0849436,
        "demand": 126.0,
        "cityref": 140
    },
    "51": {
        "index": 51,
        "location": "Courtright",
        "lat": 42.8190627,
        "lng": -82.46793939999998,
        "demand": 228.0,
        "cityref": 194
    },
    "52": {
        "index": 52,
        "location": "Thedford",
        "lat": 43.220153100000005,
        "lng": -81.8671012,
        "demand": 3.0,
        "cityref": 80
    },
    "53": {
        "index": 53,
        "location": "Chatsworth",
        "lat": 44.37167120000001,
        "lng": -80.85438470000001,
        "demand": 207.0,
        "cityref": 9
    },
    "54": {
        "index": 54,
        "location": "Trenton",
        "lat": 44.1011263,
        "lng": -77.576313,
        "demand": 117.0,
        "cityref": 75
    },
    "55": {
        "index": 55,
        "location": "Foleyet",
        "lat": 48.243889,
        "lng": -82.439722,
        "demand": 234.0,
        "cityref": 96
    },
    "56": {
        "index": 56,
        "location": "Unionville",
        "lat": 43.8655329,
        "lng": -79.31068619999998,
        "demand": 281.0,
        "cityref": 171
    },
    "57": {
        "index": 57,
        "location": "Camlachie",
        "lat": 43.0357119,
        "lng": -82.16231499999998,
        "demand": 50.0,
        "cityref": 196
    },
    "58": {
        "index": 58,
        "location": "Kintore",
        "lat": 43.1389731,
        "lng": -81.0301867,
        "demand": 49.0,
        "cityref": 131
    },
    "59": {
        "index": 59,
        "location": "Deseronto",
        "lat": 44.19539880000001,
        "lng": -77.04873289999998,
        "demand": 254.0,
        "cityref": 218
    },
    "60": {
        "index": 60,
        "location": "Tweed",
        "lat": 44.474728000000006,
        "lng": -77.310249,
        "demand": 25.0,
        "cityref": 188
    },
    "61": {
        "index": 61,
        "location": "Fergus",
        "lat": 43.705952200000006,
        "lng": -80.37783359999999,
        "demand": 130.0,
        "cityref": 102
    },
    "62": {
        "index": 62,
        "location": "Lambeth",
        "lat": 42.90963,
        "lng": -81.3001869,
        "demand": 187.0,
        "cityref": 221
    },
    "63": {
        "index": 63,
        "location": "Courtice",
        "lat": 43.910935200000004,
        "lng": -78.7884468,
        "demand": 181.0,
        "cityref": 203
    },
    "64": {
        "index": 64,
        "location": "Sandwich",
        "lat": 42.296387,
        "lng": -83.06987,
        "demand": 17.0,
        "cityref": 88
    },
    "65": {
        "index": 65,
        "location": "Cornwall",
        "lat": 45.0212762,
        "lng": -74.730345,
        "demand": 181.0,
        "cityref": 128
    },
    "66": {
        "index": 66,
        "location": "Gogama",
        "lat": 47.674490000000006,
        "lng": -81.72342900000001,
        "demand": 186.0,
        "cityref": 105
    },
    "67": {
        "index": 67,
        "location": "Brigden",
        "lat": 42.814509,
        "lng": -82.28178740000001,
        "demand": 43.0,
        "cityref": 54
    },
    "68": {
        "index": 68,
        "location": "Sundridge",
        "lat": 45.7690306,
        "lng": -79.39638670000001,
        "demand": 69.0,
        "cityref": 210
    },
    "69": {
        "index": 69,
        "location": "Bradford",
        "lat": 44.11098579999999,
        "lng": -79.5794265,
        "demand": 64.0,
        "cityref": 244
    },
    "70": {
        "index": 70,
        "location": "Russell",
        "lat": 45.25926519999999,
        "lng": -75.357609,
        "demand": 178.0,
        "cityref": 209
    },
    "71": {
        "index": 71,
        "location": "Stoney Creek",
        "lat": 43.2272182,
        "lng": -79.71955859999998,
        "demand": 234.0,
        "cityref": 95
    },
    "72": {
        "index": 72,
        "location": "Hastings",
        "lat": 44.3095848,
        "lng": -77.95675959999998,
        "demand": 123.0,
        "cityref": 138
    },
    "73": {
        "index": 73,
        "location": "Wardsville",
        "lat": 42.655559100000005,
        "lng": -81.7554017,
        "demand": 39.0,
        "cityref": 157
    },
    "74": {
        "index": 74,
        "location": "Massey",
        "lat": 46.212565000000005,
        "lng": -82.07761599999998,
        "demand": 181.0,
        "cityref": 246
    },
    "75": {
        "index": 75,
        "location": "Embro",
        "lat": 43.1556566,
        "lng": -80.90106270000003,
        "demand": 31.0,
        "cityref": 191
    },
    "76": {
        "index": 76,
        "location": "Rolphton",
        "lat": 46.1666669,
        "lng": -77.7,
        "demand": 147.0,
        "cityref": 147
    },
    "77": {
        "index": 77,
        "location": "L`Orignal",
        "lat": 45.619268100000006,
        "lng": -74.6928116,
        "demand": 152.0,
        "cityref": 56
    },
    "78": {
        "index": 78,
        "location": "Hespeler",
        "lat": 43.424376099999996,
        "lng": -80.30181069999998,
        "demand": 298.0,
        "cityref": 67
    },
    "79": {
        "index": 79,
        "location": "Christian Island",
        "lat": 44.8316783,
        "lng": -80.203564,
        "demand": 255.0,
        "cityref": 213
    },
    "80": {
        "index": 80,
        "location": "Selkirk",
        "lat": 42.833673,
        "lng": -79.931837,
        "demand": 77.0,
        "cityref": 232
    },
    "81": {
        "index": 81,
        "location": "Port Carling",
        "lat": 45.116673999999996,
        "lng": -79.57537599999998,
        "demand": 200.0,
        "cityref": 189
    },
    "82": {
        "index": 82,
        "location": "Yarker",
        "lat": 44.371583,
        "lng": -76.77027509999999,
        "demand": 149.0,
        "cityref": 81
    },
    "83": {
        "index": 83,
        "location": "Comber",
        "lat": 42.230538200000005,
        "lng": -82.5519547,
        "demand": 251.0,
        "cityref": 145
    },
    "84": {
        "index": 84,
        "location": "Jaffray Melick",
        "lat": 49.783660999999995,
        "lng": -94.442702,
        "demand": 186.0,
        "cityref": 159
    },
    "85": {
        "index": 85,
        "location": "Alexandria",
        "lat": 45.3111798,
        "lng": -74.63671579999998,
        "demand": 225.0,
        "cityref": 30
    },
    "86": {
        "index": 86,
        "location": "Victoria",
        "lat": 44.596151,
        "lng": -78.939262,
        "demand": 103.0,
        "cityref": 161
    },
    "87": {
        "index": 87,
        "location": "Fenwick",
        "lat": 43.0240705,
        "lng": -79.3622975,
        "demand": 194.0,
        "cityref": 60
    },
    "88": {
        "index": 88,
        "location": "Plattsville",
        "lat": 43.303253999999995,
        "lng": -80.62156999999998,
        "demand": 241.0,
        "cityref": 16
    },
    "89": {
        "index": 89,
        "location": "Newmarket",
        "lat": 44.05918700000001,
        "lng": -79.46125599999998,
        "demand": 259.0,
        "cityref": 78
    },
    "90": {
        "index": 90,
        "location": "Marathon",
        "lat": 48.716744,
        "lng": -86.38219559999999,
        "demand": 52.0,
        "cityref": 61
    },
    "91": {
        "index": 91,
        "location": "Scarborough",
        "lat": 43.7764258,
        "lng": -79.2317521,
        "demand": 264.0,
        "cityref": 123
    },
    "92": {
        "index": 92,
        "location": "Hanmer",
        "lat": 46.652064,
        "lng": -80.9463083,
        "demand": 272.0,
        "cityref": 243
    },
    "93": {
        "index": 93,
        "location": "Thorne",
        "lat": 46.7006328,
        "lng": -79.10233889999998,
        "demand": 165.0,
        "cityref": 7
    },
    "94": {
        "index": 94,
        "location": "Whitefish River First Nation",
        "lat": 46.0662089,
        "lng": -81.7751153,
        "demand": 150.0,
        "cityref": 48
    },
    "95": {
        "index": 95,
        "location": "Waterdown",
        "lat": 43.3247102,
        "lng": -79.90303709999998,
        "demand": 233.0,
        "cityref": 150
    },
    "96": {
        "index": 96,
        "location": "Walden",
        "lat": 46.352896,
        "lng": -81.33387990000001,
        "demand": 256.0,
        "cityref": 118
    },
    "97": {
        "index": 97,
        "location": "Gooderham",
        "lat": 44.906384,
        "lng": -78.379801,
        "demand": 157.0,
        "cityref": 173
    },
    "98": {
        "index": 98,
        "location": "Port Stanley",
        "lat": 42.66413529999999,
        "lng": -81.21563290000002,
        "demand": 125.0,
        "cityref": 180
    },
    "99": {
        "index": 99,
        "location": "Markstay",
        "lat": 46.454695,
        "lng": -80.41645,
        "demand": 46.0,
        "cityref": 31
    },
    "100": {
        "index": 100,
        "location": "Charlton",
        "lat": 47.8097064,
        "lng": -79.99752790000001,
        "demand": 131.0,
        "cityref": 110
    },
    "101": {
        "index": 101,
        "location": "Henvey Inlet First Nation",
        "lat": 45.9776382,
        "lng": -80.55331420000002,
        "demand": 85.0,
        "cityref": 37
    },
    "102": {
        "index": 102,
        "location": "Warren",
        "lat": 46.454695,
        "lng": -80.41645,
        "demand": 141.0,
        "cityref": 113
    },
    "103": {
        "index": 103,
        "location": "Redditt",
        "lat": 49.974483,
        "lng": -94.39093100000001,
        "demand": 67.0,
        "cityref": 228
    },
    "104": {
        "index": 104,
        "location": "Bruce Mines",
        "lat": 46.300272899999996,
        "lng": -83.79347390000002,
        "demand": 224.0,
        "cityref": 22
    },
    "105": {
        "index": 105,
        "location": "Winchester",
        "lat": 45.073258100000004,
        "lng": -75.36307860000002,
        "demand": 135.0,
        "cityref": 97
    },
    "106": {
        "index": 106,
        "location": "Beachburg",
        "lat": 45.73572539999999,
        "lng": -76.8631085,
        "demand": 245.0,
        "cityref": 229
    },
    "107": {
        "index": 107,
        "location": "St. Charles",
        "lat": 46.362466999999995,
        "lng": -80.41670490000001,
        "demand": 257.0,
        "cityref": 74
    },
    "108": {
        "index": 108,
        "location": "Udora",
        "lat": 44.2577799,
        "lng": -79.18403599999998,
        "demand": 103.0,
        "cityref": 53
    },
    "109": {
        "index": 109,
        "location": "Douglas",
        "lat": 45.508593,
        "lng": -76.93843199999998,
        "demand": 294.0,
        "cityref": 201
    },
    "110": {
        "index": 110,
        "location": "Wellesley",
        "lat": 43.532205700000006,
        "lng": -80.7657804,
        "demand": 136.0,
        "cityref": 168
    },
    "111": {
        "index": 111,
        "location": "New Hamburg",
        "lat": 43.37945879999999,
        "lng": -80.71110580000001,
        "demand": 86.0,
        "cityref": 62
    },
    "112": {
        "index": 112,
        "location": "Arthur",
        "lat": 43.832919700000005,
        "lng": -80.5378858,
        "demand": 297.0,
        "cityref": 176
    },
    "113": {
        "index": 113,
        "location": "Woodbridge",
        "lat": 43.7761753,
        "lng": -79.60924299999998,
        "demand": 157.0,
        "cityref": 83
    },
    "114": {
        "index": 114,
        "location": "Oakville",
        "lat": 43.467517,
        "lng": -79.68766590000001,
        "demand": 198.0,
        "cityref": 222
    },
    "115": {
        "index": 115,
        "location": "St. Davids",
        "lat": 43.16032389999999,
        "lng": -79.10404319999998,
        "demand": 83.0,
        "cityref": 224
    },
    "116": {
        "index": 116,
        "location": "Red Lake",
        "lat": 51.0145968,
        "lng": -93.828916,
        "demand": 274.0,
        "cityref": 5
    },
    "117": {
        "index": 117,
        "location": "Alfred",
        "lat": 45.549331,
        "lng": -74.90319989999998,
        "demand": 233.0,
        "cityref": 107
    },
    "118": {
        "index": 118,
        "location": "Stirling",
        "lat": 44.360296999999996,
        "lng": -77.59213369999998,
        "demand": 200.0,
        "cityref": 15
    },
    "119": {
        "index": 119,
        "location": "Sparta",
        "lat": 42.702461,
        "lng": -81.07879390000001,
        "demand": 134.0,
        "cityref": 172
    },
    "120": {
        "index": 120,
        "location": "Strathroy",
        "lat": 42.955420000000004,
        "lng": -81.62323330000002,
        "demand": 179.0,
        "cityref": 223
    },
    "121": {
        "index": 121,
        "location": "Magnetawan",
        "lat": 45.66524099999999,
        "lng": -79.643979,
        "demand": 150.0,
        "cityref": 187
    },
    "122": {
        "index": 122,
        "location": "Nipissing First Nation",
        "lat": 46.3396694,
        "lng": -79.79029440000001,
        "demand": 237.0,
        "cityref": 231
    },
    "123": {
        "index": 123,
        "location": "Paquette Corner",
        "lat": 42.17637999999999,
        "lng": -82.964381,
        "demand": 125.0,
        "cityref": 11
    },
    "124": {
        "index": 124,
        "location": "Eganville",
        "lat": 45.539935,
        "lng": -77.1010788,
        "demand": 281.0,
        "cityref": 206
    },
    "125": {
        "index": 125,
        "location": "Newburgh",
        "lat": 44.325776,
        "lng": -76.87735500000001,
        "demand": 145.0,
        "cityref": 116
    },
    "126": {
        "index": 126,
        "location": "Morrisburg",
        "lat": 44.89778889999999,
        "lng": -75.1833966,
        "demand": 60.0,
        "cityref": 200
    },
    "127": {
        "index": 127,
        "location": "Grafton",
        "lat": 43.992634,
        "lng": -78.023383,
        "demand": 262.0,
        "cityref": 69
    },
    "128": {
        "index": 128,
        "location": "Arkell",
        "lat": 43.537298,
        "lng": -80.167828,
        "demand": 256.0,
        "cityref": 137
    },
    "129": {
        "index": 129,
        "location": "Hawk Junction",
        "lat": 48.079607,
        "lng": -84.549258,
        "demand": 96.0,
        "cityref": 144
    },
    "130": {
        "index": 130,
        "location": "Gowganda",
        "lat": 47.65,
        "lng": -80.766667,
        "demand": 112.0,
        "cityref": 34
    },
    "131": {
        "index": 131,
        "location": "South River",
        "lat": 45.841037799999995,
        "lng": -79.37957279999998,
        "demand": 285.0,
        "cityref": 205
    },
    "132": {
        "index": 132,
        "location": "Garson",
        "lat": 46.55469,
        "lng": -80.86143100000001,
        "demand": 144.0,
        "cityref": 79
    },
    "133": {
        "index": 133,
        "location": "Orono",
        "lat": 43.97722,
        "lng": -78.61680199999998,
        "demand": 83.0,
        "cityref": 211
    },
    "134": {
        "index": 134,
        "location": "Iron Bridge",
        "lat": 46.278529999999996,
        "lng": -83.22259199999998,
        "demand": 250.0,
        "cityref": 162
    },
    "135": {
        "index": 135,
        "location": "Long Lac",
        "lat": 49.78166599999999,
        "lng": -86.534706,
        "demand": 289.0,
        "cityref": 114
    },
    "136": {
        "index": 136,
        "location": "Carnarvon",
        "lat": 45.045479,
        "lng": -78.69838399999998,
        "demand": 260.0,
        "cityref": 109
    },
    "137": {
        "index": 137,
        "location": "Tecumseh",
        "lat": 42.3117966,
        "lng": -82.88575920000001,
        "demand": 241.0,
        "cityref": 18
    },
    "138": {
        "index": 138,
        "location": "Colborne",
        "lat": 44.0050203,
        "lng": -77.88823040000003,
        "demand": 248.0,
        "cityref": 87
    },
    "139": {
        "index": 139,
        "location": "London",
        "lat": 42.9849233,
        "lng": -81.2452768,
        "demand": 239.0,
        "cityref": 185
    },
    "140": {
        "index": 140,
        "location": "Savant Lake",
        "lat": 50.23748699999999,
        "lng": -90.7007,
        "demand": 84.0,
        "cityref": 148
    },
    "141": {
        "index": 141,
        "location": "Harrow",
        "lat": 42.0355591,
        "lng": -82.918148,
        "demand": 175.0,
        "cityref": 20
    },
    "142": {
        "index": 142,
        "location": "Belmont",
        "lat": 42.8813217,
        "lng": -81.08754119999998,
        "demand": 192.0,
        "cityref": 170
    },
    "143": {
        "index": 143,
        "location": "Uniondale",
        "lat": 43.217351,
        "lng": -81.069587,
        "demand": 296.0,
        "cityref": 163
    },
    "144": {
        "index": 144,
        "location": "Borden",
        "lat": 44.2830231,
        "lng": -79.8943637,
        "demand": 204.0,
        "cityref": 238
    },
    "145": {
        "index": 145,
        "location": "Hawkesbury",
        "lat": 45.6071264,
        "lng": -74.60418899999998,
        "demand": 115.0,
        "cityref": 77
    },
    "146": {
        "index": 146,
        "location": "Jordan",
        "lat": 43.14476629999999,
        "lng": -79.368746,
        "demand": 245.0,
        "cityref": 182
    },
    "147": {
        "index": 147,
        "location": "Paris",
        "lat": 43.1940203,
        "lng": -80.3844996,
        "demand": 129.0,
        "cityref": 154
    },
    "148": {
        "index": 148,
        "location": "Chelmsford",
        "lat": 46.577569200000006,
        "lng": -81.1979645,
        "demand": 80.0,
        "cityref": 92
    },
    "149": {
        "index": 149,
        "location": "Plevna",
        "lat": 44.96228199999999,
        "lng": -76.983946,
        "demand": 36.0,
        "cityref": 190
    },
    "150": {
        "index": 150,
        "location": "Fort William First Nation",
        "lat": 48.3528205,
        "lng": -89.2663192,
        "demand": 75.0,
        "cityref": 2
    },
    "151": {
        "index": 151,
        "location": "Mooretown",
        "lat": 42.8418468,
        "lng": -82.46173639999998,
        "demand": 217.0,
        "cityref": 25
    },
    "152": {
        "index": 152,
        "location": "Prescott",
        "lat": 44.709294,
        "lng": -75.51897199999998,
        "demand": 273.0,
        "cityref": 39
    },
    "153": {
        "index": 153,
        "location": "Chippewas of Kettle/Stony Poin",
        "lat": 43.178351899999996,
        "lng": -81.9987745,
        "demand": 219.0,
        "cityref": 235
    },
    "154": {
        "index": 154,
        "location": "West Guilford",
        "lat": 45.116667,
        "lng": -78.6,
        "demand": 192.0,
        "cityref": 155
    },
    "155": {
        "index": 155,
        "location": "Markdale",
        "lat": 44.31867870000001,
        "lng": -80.64788279999998,
        "demand": 159.0,
        "cityref": 85
    },
    "156": {
        "index": 156,
        "location": "Nipigon",
        "lat": 49.0157351,
        "lng": -88.268316,
        "demand": 274.0,
        "cityref": 42
    },
    "157": {
        "index": 157,
        "location": "Sarnia",
        "lat": 42.974536,
        "lng": -82.4065901,
        "demand": 108.0,
        "cityref": 174
    },
    "158": {
        "index": 158,
        "location": "Burk`s Falls",
        "lat": 45.61988299999999,
        "lng": -79.408748,
        "demand": 180.0,
        "cityref": 169
    },
    "159": {
        "index": 159,
        "location": "Stewarttown",
        "lat": 43.63188100000001,
        "lng": -79.929863,
        "demand": 107.0,
        "cityref": 126
    },
    "160": {
        "index": 160,
        "location": "Colchester",
        "lat": 41.986065,
        "lng": -82.926412,
        "demand": 54.0,
        "cityref": 23
    },
    "161": {
        "index": 161,
        "location": "Ancaster",
        "lat": 43.2177791,
        "lng": -79.98728349999998,
        "demand": 204.0,
        "cityref": 40
    },
    "162": {
        "index": 162,
        "location": "Moonbeam",
        "lat": 49.3431571,
        "lng": -82.15413319999998,
        "demand": 169.0,
        "cityref": 236
    },
    "163": {
        "index": 163,
        "location": "Orangeville",
        "lat": 43.919978799999996,
        "lng": -80.0943113,
        "demand": 290.0,
        "cityref": 167
    },
    "164": {
        "index": 164,
        "location": "Thurlow",
        "lat": 44.175168000000006,
        "lng": -77.30447,
        "demand": 297.0,
        "cityref": 160
    },
    "165": {
        "index": 165,
        "location": "Langton",
        "lat": 42.741924,
        "lng": -80.57767100000002,
        "demand": 115.0,
        "cityref": 234
    },
    "166": {
        "index": 166,
        "location": "Lafontaine",
        "lat": 44.75,
        "lng": -80.06666700000001,
        "demand": 269.0,
        "cityref": 91
    },
    "167": {
        "index": 167,
        "location": "Stoke`s Bay",
        "lat": 45.0,
        "lng": -81.36666699999998,
        "demand": 299.0,
        "cityref": 94
    },
    "168": {
        "index": 168,
        "location": "Bright",
        "lat": 43.27144699999999,
        "lng": -80.65787399999998,
        "demand": 98.0,
        "cityref": 68
    },
    "169": {
        "index": 169,
        "location": "Pembroke",
        "lat": 45.82665129999999,
        "lng": -77.11088259999998,
        "demand": 127.0,
        "cityref": 133
    },
    "170": {
        "index": 170,
        "location": "Bobcaygeon",
        "lat": 44.5404573,
        "lng": -78.5463692,
        "demand": 218.0,
        "cityref": 120
    },
    "171": {
        "index": 171,
        "location": "Bear`s Passage",
        "lat": 48.694917700000005,
        "lng": -93.0030097,
        "demand": 120.0,
        "cityref": 21
    },
    "172": {
        "index": 172,
        "location": "Listowel",
        "lat": 43.7334165,
        "lng": -80.95146980000001,
        "demand": 35.0,
        "cityref": 121
    },
    "173": {
        "index": 173,
        "location": "Dryden",
        "lat": 49.780093799999996,
        "lng": -92.83695920000001,
        "demand": 126.0,
        "cityref": 43
    },
    "174": {
        "index": 174,
        "location": "Embrun",
        "lat": 45.27564599999999,
        "lng": -75.27541099999998,
        "demand": 73.0,
        "cityref": 245
    },
    "175": {
        "index": 175,
        "location": "Newtonville",
        "lat": 44.000937500000006,
        "lng": -79.00035489999998,
        "demand": 76.0,
        "cityref": 249
    },
    "176": {
        "index": 176,
        "location": "Mallorytown",
        "lat": 44.47933099999999,
        "lng": -75.884855,
        "demand": 22.0,
        "cityref": 216
    },
    "177": {
        "index": 177,
        "location": "Wingham",
        "lat": 43.887947600000004,
        "lng": -81.3116601,
        "demand": 291.0,
        "cityref": 241
    },
    "178": {
        "index": 178,
        "location": "Thunder Bay",
        "lat": 48.380895100000004,
        "lng": -89.2476823,
        "demand": 89.0,
        "cityref": 17
    },
    "179": {
        "index": 179,
        "location": "Shedden",
        "lat": 42.739472,
        "lng": -81.34531799999998,
        "demand": 64.0,
        "cityref": 112
    },
    "180": {
        "index": 180,
        "location": "North York",
        "lat": 43.761537700000005,
        "lng": -79.41107939999998,
        "demand": 62.0,
        "cityref": 104
    },
    "181": {
        "index": 181,
        "location": "Devlin",
        "lat": 48.61912,
        "lng": -93.672267,
        "demand": 41.0,
        "cityref": 134
    },
    "182": {
        "index": 182,
        "location": "Echo Bay",
        "lat": 46.4849924,
        "lng": -84.07005579999998,
        "demand": 146.0,
        "cityref": 177
    },
    "183": {
        "index": 183,
        "location": "Hamilton",
        "lat": 43.255720600000004,
        "lng": -79.87110240000001,
        "demand": 204.0,
        "cityref": 49
    },
    "184": {
        "index": 184,
        "location": "Amherstburg",
        "lat": 42.101377899999996,
        "lng": -83.10869770000001,
        "demand": 293.0,
        "cityref": 51
    },
    "185": {
        "index": 185,
        "location": "Linwood",
        "lat": 43.581508299999996,
        "lng": -80.72844350000001,
        "demand": 294.0,
        "cityref": 141
    },
    "186": {
        "index": 186,
        "location": "Frankford",
        "lat": 44.201281200000004,
        "lng": -77.5959798,
        "demand": 162.0,
        "cityref": 50
    },
    "187": {
        "index": 187,
        "location": "Kaministiquia",
        "lat": 48.532739899999996,
        "lng": -89.585111,
        "demand": 107.0,
        "cityref": 4
    },
    "188": {
        "index": 188,
        "location": "Marmora",
        "lat": 44.482946999999996,
        "lng": -77.68210599999998,
        "demand": 177.0,
        "cityref": 127
    },
    "189": {
        "index": 189,
        "location": "Spanish",
        "lat": 46.194795899999995,
        "lng": -82.34227790000001,
        "demand": 65.0,
        "cityref": 111
    },
    "190": {
        "index": 190,
        "location": "Jarvis",
        "lat": 42.8848979,
        "lng": -80.1106997,
        "demand": 247.0,
        "cityref": 202
    },
    "191": {
        "index": 191,
        "location": "Kitchener",
        "lat": 43.4516395,
        "lng": -80.49253370000001,
        "demand": 67.0,
        "cityref": 55
    },
    "192": {
        "index": 192,
        "location": "Roseneath",
        "lat": 44.192768,
        "lng": -78.057677,
        "demand": 169.0,
        "cityref": 65
    },
    "193": {
        "index": 193,
        "location": "Ailsa Craig",
        "lat": 43.1470282,
        "lng": -81.5337693,
        "demand": 66.0,
        "cityref": 45
    },
    "194": {
        "index": 194,
        "location": "Mitchell",
        "lat": 43.4678033,
        "lng": -81.19686569999998,
        "demand": 295.0,
        "cityref": 70
    },
    "195": {
        "index": 195,
        "location": "Halton Hills",
        "lat": 43.646987,
        "lng": -80.017663,
        "demand": 293.0,
        "cityref": 117
    },
    "196": {
        "index": 196,
        "location": "Mount Forest",
        "lat": 43.981093,
        "lng": -80.73586530000001,
        "demand": 219.0,
        "cityref": 44
    },
    "197": {
        "index": 197,
        "location": "Bradford West Gwillimbury",
        "lat": 44.114899,
        "lng": -79.56295290000001,
        "demand": 191.0,
        "cityref": 64
    },
    "198": {
        "index": 198,
        "location": "Nephton",
        "lat": 44.629847999999996,
        "lng": -77.99911999999998,
        "demand": 66.0,
        "cityref": 204
    },
    "199": {
        "index": 199,
        "location": "Gananoque",
        "lat": 44.330618,
        "lng": -76.16186400000001,
        "demand": 189.0,
        "cityref": 220
    },
    "200": {
        "index": 200,
        "location": "Port Hope",
        "lat": 43.9491784,
        "lng": -78.2934468,
        "demand": 291.0,
        "cityref": 101
    }
}